{
"type": "FeatureCollection",
"name": "projects_points",
"crs": { "type": "name", "properties": { "name": "urn:ogc:def:crs:OGC:1.3:CRS84" } },
"features": [
{ "type": "Feature", "properties": { "PIN": "0890006", "display_address": "0300 KEY HWY, 21225", "sdat_url": "http://sdat.dat.maryland.gov/realproperty/pages/viewdetails.aspx?County=03&SearchType=ACCT&Ward=22&SECTION=01&BLOCK=0890&LOT=006 " }, "geometry": { "type": "Point", "coordinates": [ -76.609121991384129, 39.281302511217582 ] } },
{ "type": "Feature", "properties": { "PIN": "1078001", "display_address": "465 MEETING ST STE 500 CHARLESTON, SC, 29403", "sdat_url": "http://sdat.dat.maryland.gov/realproperty/pages/viewdetails.aspx?County=03&SearchType=ACCT&Ward=23&SECTION=10&BLOCK=1078&LOT=001 " }, "geometry": { "type": "Point", "coordinates": [ -76.613956571586556, 39.261567069032949 ] } },
{ "type": "Feature", "properties": { "PIN": "1079001", "display_address": "465 MEETING ST STE 500 CHARLESTON, SC, 29403", "sdat_url": "http://sdat.dat.maryland.gov/realproperty/pages/viewdetails.aspx?County=03&SearchType=ACCT&Ward=23&SECTION=10&BLOCK=1079&LOT=001 " }, "geometry": { "type": "Point", "coordinates": [ -76.612709904981131, 39.261574998642224 ] } },
{ "type": "Feature", "properties": { "PIN": "1280003", "display_address": "0620 N CAROLINE ST, 21205", "sdat_url": "http://sdat.dat.maryland.gov/realproperty/pages/viewdetails.aspx?County=03&SearchType=ACCT&Ward=05&SECTION=01&BLOCK=1280&LOT=003 " }, "geometry": { "type": "Point", "coordinates": [ -76.598023282482131, 39.297670883509568 ] } },
{ "type": "Feature", "properties": { "PIN": "1295001", "display_address": "417 E FAYETTE ST, 21202", "sdat_url": "http://sdat.dat.maryland.gov/realproperty/pages/viewdetails.aspx?County=03&SearchType=ACCT&Ward=05&SECTION=10&BLOCK=1295&LOT=001 " }, "geometry": { "type": "Point", "coordinates": [ -76.600446692850653, 39.296535202266433 ] } },
{ "type": "Feature", "properties": { "PIN": "1295001G", "display_address": "417 E FAYETTE ST, 21202", "sdat_url": "http://sdat.dat.maryland.gov/realproperty/pages/viewdetails.aspx?County=03&SearchType=ACCT&Ward=05&SECTION=10&BLOCK=1295&LOT=001G" }, "geometry": { "type": "Point", "coordinates": [ -76.601233822798264, 39.295634506834141 ] } },
{ "type": "Feature", "properties": { "PIN": "1295001H", "display_address": "417 E FAYETTE ST, 21202", "sdat_url": "http://sdat.dat.maryland.gov/realproperty/pages/viewdetails.aspx?County=03&SearchType=ACCT&Ward=05&SECTION=10&BLOCK=1295&LOT=001H" }, "geometry": { "type": "Point", "coordinates": [ -76.6003888205518, 39.295562084128221 ] } },
{ "type": "Feature", "properties": { "PIN": "1295001J", "display_address": "417 E FAYETTE ST, 21202", "sdat_url": "http://sdat.dat.maryland.gov/realproperty/pages/viewdetails.aspx?County=03&SearchType=ACCT&Ward=05&SECTION=10&BLOCK=1295&LOT=001J" }, "geometry": { "type": "Point", "coordinates": [ -76.600879002155821, 39.296026256608307 ] } },
{ "type": "Feature", "properties": { "PIN": "1295001K", "display_address": "417 E FAYETTE ST, 21202", "sdat_url": "http://sdat.dat.maryland.gov/realproperty/pages/viewdetails.aspx?County=03&SearchType=ACCT&Ward=05&SECTION=10&BLOCK=1295&LOT=001K" }, "geometry": { "type": "Point", "coordinates": [ -76.600673320430658, 39.295080112222202 ] } },
{ "type": "Feature", "properties": { "PIN": "1295001L", "display_address": "417 E FAYETTE ST, 21202", "sdat_url": "http://sdat.dat.maryland.gov/realproperty/pages/viewdetails.aspx?County=03&SearchType=ACCT&Ward=05&SECTION=10&BLOCK=1295&LOT=001L" }, "geometry": { "type": "Point", "coordinates": [ -76.601364916752388, 39.296500012829419 ] } },
{ "type": "Feature", "properties": { "PIN": "1417001", "display_address": "417 E FAYETTE ST, 21202", "sdat_url": "http://sdat.dat.maryland.gov/realproperty/pages/viewdetails.aspx?County=03&SearchType=ACCT&Ward=03&SECTION=02&BLOCK=1417&LOT=001 " }, "geometry": { "type": "Point", "coordinates": [ -76.597758525571621, 39.288669576632834 ] } },
{ "type": "Feature", "properties": { "PIN": "1417002", "display_address": "P.O. BOX 1917, 21203", "sdat_url": "http://sdat.dat.maryland.gov/realproperty/pages/viewdetails.aspx?County=03&SearchType=ACCT&Ward=03&SECTION=02&BLOCK=1417&LOT=002 " }, "geometry": { "type": "Point", "coordinates": [ -76.597707733490523, 39.287864399713385 ] } },
{ "type": "Feature", "properties": { "PIN": "1418001", "display_address": "417 E. FAYETTE ST, SUITE 266, 21202", "sdat_url": "http://sdat.dat.maryland.gov/realproperty/pages/viewdetails.aspx?County=03&SearchType=ACCT&Ward=03&SECTION=09&BLOCK=1418&LOT=001 " }, "geometry": { "type": "Point", "coordinates": [ -76.596563974456089, 39.288725237189169 ] } },
{ "type": "Feature", "properties": { "PIN": "1418001A", "display_address": "417 E FAYETTE ST SUITE 266, 21202", "sdat_url": "http://sdat.dat.maryland.gov/realproperty/pages/viewdetails.aspx?County=03&SearchType=ACCT&Ward=03&SECTION=09&BLOCK=1418&LOT=001A" }, "geometry": { "type": "Point", "coordinates": [ -76.596022785671096, 39.28831780417525 ] } },
{ "type": "Feature", "properties": { "PIN": "1418001A", "display_address": "417 E FAYETTE ST SUITE 266, 21202", "sdat_url": "http://sdat.dat.maryland.gov/realproperty/pages/viewdetails.aspx?County=03&SearchType=ACCT&Ward=03&SECTION=09&BLOCK=1418&LOT=001A" }, "geometry": { "type": "Point", "coordinates": [ -76.59659143001457, 39.288294530561117 ] } },
{ "type": "Feature", "properties": { "PIN": "1418002", "display_address": "417 E FAYETTE ST STE 266, 21202", "sdat_url": "http://sdat.dat.maryland.gov/realproperty/pages/viewdetails.aspx?County=03&SearchType=ACCT&Ward=03&SECTION=09&BLOCK=1418&LOT=002 " }, "geometry": { "type": "Point", "coordinates": [ -76.595998927513293, 39.288727598004705 ] } },
{ "type": "Feature", "properties": { "PIN": "1418003", "display_address": "417 E FAYETTE ST SUITE 266, 21202", "sdat_url": "http://sdat.dat.maryland.gov/realproperty/pages/viewdetails.aspx?County=03&SearchType=ACCT&Ward=03&SECTION=09&BLOCK=1418&LOT=003 " }, "geometry": { "type": "Point", "coordinates": [ -76.596218813902937, 39.287912304233529 ] } },
{ "type": "Feature", "properties": { "PIN": "1419026", "display_address": "417 E FAYETTE ST STE 266, 21202", "sdat_url": "http://sdat.dat.maryland.gov/realproperty/pages/viewdetails.aspx?County=03&SearchType=ACCT&Ward=03&SECTION=09&BLOCK=1419&LOT=026 " }, "geometry": { "type": "Point", "coordinates": [ -76.595099925694271, 39.288763386493095 ] } },
{ "type": "Feature", "properties": { "PIN": "1419073A", "display_address": "100 N BROADWAY STE 100 SAINT LOUIS, MO, 63102", "sdat_url": "http://sdat.dat.maryland.gov/realproperty/pages/viewdetails.aspx?County=03&SearchType=ACCT&Ward=03&SECTION=09&BLOCK=1419&LOT=073A" }, "geometry": { "type": "Point", "coordinates": [ -76.595060398279074, 39.288037538374887 ] } },
{ "type": "Feature", "properties": { "PIN": "1426001", "display_address": "417 E FAYETTE ST SUITE 266, 21202", "sdat_url": "http://sdat.dat.maryland.gov/realproperty/pages/viewdetails.aspx?County=03&SearchType=ACCT&Ward=03&SECTION=08&BLOCK=1426&LOT=001 " }, "geometry": { "type": "Point", "coordinates": [ -76.597569417946588, 39.286732789024008 ] } },
{ "type": "Feature", "properties": { "PIN": "1426003", "display_address": "417 E FAYETTE ST SUITE 266, 21202", "sdat_url": "http://sdat.dat.maryland.gov/realproperty/pages/viewdetails.aspx?County=03&SearchType=ACCT&Ward=03&SECTION=08&BLOCK=1426&LOT=003 " }, "geometry": { "type": "Point", "coordinates": [ -76.597748279692041, 39.287122791646986 ] } },
{ "type": "Feature", "properties": { "PIN": "1427001", "display_address": "417 E FAYETTE ST SUITE 266, 21202", "sdat_url": "http://sdat.dat.maryland.gov/realproperty/pages/viewdetails.aspx?County=03&SearchType=ACCT&Ward=03&SECTION=08&BLOCK=1427&LOT=001 " }, "geometry": { "type": "Point", "coordinates": [ -76.596143222325225, 39.286823134857684 ] } },
{ "type": "Feature", "properties": { "PIN": "1427002", "display_address": "417 E FAYETTE ST SUITE 266, 21202", "sdat_url": "http://sdat.dat.maryland.gov/realproperty/pages/viewdetails.aspx?County=03&SearchType=ACCT&Ward=03&SECTION=08&BLOCK=1427&LOT=002 " }, "geometry": { "type": "Point", "coordinates": [ -76.596170900392622, 39.287233541816803 ] } },
{ "type": "Feature", "properties": { "PIN": "1428001", "display_address": "100 N BROADWAY ST 100 ST. LOUIS, MO, 63102", "sdat_url": "http://sdat.dat.maryland.gov/realproperty/pages/viewdetails.aspx?County=03&SearchType=ACCT&Ward=03&SECTION=09&BLOCK=1428&LOT=001 " }, "geometry": { "type": "Point", "coordinates": [ -76.594967659243395, 39.286838567126672 ] } },
{ "type": "Feature", "properties": { "PIN": "1428076", "display_address": "417 E FAYETTE ST STE 266, 21202", "sdat_url": "http://sdat.dat.maryland.gov/realproperty/pages/viewdetails.aspx?County=03&SearchType=ACCT&Ward=03&SECTION=09&BLOCK=1428&LOT=076 " }, "geometry": { "type": "Point", "coordinates": [ -76.595004800427503, 39.287249090375155 ] } },
{ "type": "Feature", "properties": { "PIN": "1649035", "display_address": "3910 KESWICK RD, N-3100, 21211", "sdat_url": "http://sdat.dat.maryland.gov/realproperty/pages/viewdetails.aspx?County=03&SearchType=ACCT&Ward=07&SECTION=12&BLOCK=1649&LOT=035 " }, "geometry": { "type": "Point", "coordinates": [ -76.589862159288373, 39.296935203864052 ] } },
{ "type": "Feature", "properties": { "PIN": "1703001", "display_address": "200 EAST NORTH AVE. STE 407A, 21202", "sdat_url": "http://sdat.dat.maryland.gov/realproperty/pages/viewdetails.aspx?County=03&SearchType=ACCT&Ward=06&SECTION=12&BLOCK=1703&LOT=001 " }, "geometry": { "type": "Point", "coordinates": [ -76.588419392255304, 39.293393243751744 ] } },
{ "type": "Feature", "properties": { "PIN": "6498A003A", "display_address": "4040 WILSON BLVD STE 1000 ARLINGTON, VA, 22203", "sdat_url": "http://sdat.dat.maryland.gov/realproperty/pages/viewdetails.aspx?County=03&SearchType=ACCT&Ward=26&SECTION=02&BLOCK=6498A&LOT=003A" }, "geometry": { "type": "Point", "coordinates": [ -76.564805824504163, 39.277910900002205 ] } }
]
}
