{
"type": "FeatureCollection",
"name": "projects_points",
"crs": { "type": "name", "properties": { "name": "urn:ogc:def:crs:OGC:1.3:CRS84" } },
"features": [
{ "type": "Feature", "properties": { "PIN": "0890006", "display_address": "0300 KEY HWY, 21225", "sdat_url": "http://sdat.dat.maryland.gov/realproperty/pages/viewdetails.aspx?County=03&SearchType=ACCT&Ward=22&SECTION=01&BLOCK=0890&LOT=006 " }, "geometry": { "type": "Point", "coordinates": [ -76.609121991384129, 39.281302511217582 ] } },
{ "type": "Feature", "properties": { "PIN": "1280003", "display_address": "0620 N CAROLINE ST, 21205", "sdat_url": "http://sdat.dat.maryland.gov/realproperty/pages/viewdetails.aspx?County=03&SearchType=ACCT&Ward=05&SECTION=01&BLOCK=1280&LOT=003 " }, "geometry": { "type": "Point", "coordinates": [ -76.598023282482131, 39.297670883509568 ] } },
{ "type": "Feature", "properties": { "PIN": "1417001", "display_address": "417 E FAYETTE ST, 21202", "sdat_url": "http://sdat.dat.maryland.gov/realproperty/pages/viewdetails.aspx?County=03&SearchType=ACCT&Ward=03&SECTION=02&BLOCK=1417&LOT=001 " }, "geometry": { "type": "Point", "coordinates": [ -76.597758525571621, 39.288669576632834 ] } },
{ "type": "Feature", "properties": { "PIN": "1418001", "display_address": "417 E. FAYETTE ST, SUITE 266, 21202", "sdat_url": "http://sdat.dat.maryland.gov/realproperty/pages/viewdetails.aspx?County=03&SearchType=ACCT&Ward=03&SECTION=09&BLOCK=1418&LOT=001 " }, "geometry": { "type": "Point", "coordinates": [ -76.596563974456089, 39.288725237189169 ] } },
{ "type": "Feature", "properties": { "PIN": "1419026", "display_address": "417 E FAYETTE ST STE 266, 21202", "sdat_url": "http://sdat.dat.maryland.gov/realproperty/pages/viewdetails.aspx?County=03&SearchType=ACCT&Ward=03&SECTION=09&BLOCK=1419&LOT=026 " }, "geometry": { "type": "Point", "coordinates": [ -76.595099925694271, 39.288763386493095 ] } },
{ "type": "Feature", "properties": { "PIN": "1426001", "display_address": "417 E FAYETTE ST SUITE 266, 21202", "sdat_url": "http://sdat.dat.maryland.gov/realproperty/pages/viewdetails.aspx?County=03&SearchType=ACCT&Ward=03&SECTION=08&BLOCK=1426&LOT=001 " }, "geometry": { "type": "Point", "coordinates": [ -76.597569417946588, 39.286732789024008 ] } },
{ "type": "Feature", "properties": { "PIN": "1427001", "display_address": "417 E FAYETTE ST SUITE 266, 21202", "sdat_url": "http://sdat.dat.maryland.gov/realproperty/pages/viewdetails.aspx?County=03&SearchType=ACCT&Ward=03&SECTION=08&BLOCK=1427&LOT=001 " }, "geometry": { "type": "Point", "coordinates": [ -76.596143222325225, 39.286823134857684 ] } },
{ "type": "Feature", "properties": { "PIN": "1428001", "display_address": "100 N BROADWAY ST 100 ST. LOUIS, MO, 63102", "sdat_url": "http://sdat.dat.maryland.gov/realproperty/pages/viewdetails.aspx?County=03&SearchType=ACCT&Ward=03&SECTION=09&BLOCK=1428&LOT=001 " }, "geometry": { "type": "Point", "coordinates": [ -76.594967659243395, 39.286838567126672 ] } },
{ "type": "Feature", "properties": { "PIN": "1703001", "display_address": "200 EAST NORTH AVE. STE 407A, 21202", "sdat_url": "http://sdat.dat.maryland.gov/realproperty/pages/viewdetails.aspx?County=03&SearchType=ACCT&Ward=06&SECTION=12&BLOCK=1703&LOT=001 " }, "geometry": { "type": "Point", "coordinates": [ -76.588419392255304, 39.293393243751744 ] } }
]
}
